[
  {
    "id": "kasai",
    "name": "共育プラザ葛西 子育てひろば",
    "region": "江戸川区",
    "address": "〒134-0082 東京都江戸川区宇喜田町175番地",
    "lat": 35.6735,
    "lng": 139.8638,
    "officialUrl": "https://mommy-kasai.com/",
    "sourcePage": "https://mommy-kasai.com/news/",
    "pdfUrl": "https://mommy-kasai.com/admin/wp-content/uploads/2026/06/7278e3b8abbf2d7f228fac3ba4c60073.pdf",
    "color": "#4f86c6"
  },
  {
    "id": "nagisa",
    "name": "なぎさ子育てひろば",
    "region": "江戸川区",
    "address": "〒134-0085 東京都江戸川区南葛西7-1-27（なぎさ健康サポートセンター内）",
    "lat": 35.6438,
    "lng": 139.8702,
    "officialUrl": "https://mommy-kasai.com/",
    "sourcePage": "https://mommy-kasai.com/news/",
    "pdfUrl": "https://mommy-kasai.com/admin/wp-content/uploads/2026/06/314041c8fae80f51c1389f5d12bde312.pdf",
    "color": "#e8804f"
  },
  {
    "id": "horie",
    "name": "堀江・臨海子育てひろば",
    "region": "江戸川区",
    "address": "東京都江戸川区南葛西3-16-8（堀江）／臨海町5-1-2（臨海）",
    "lat": 35.6501,
    "lng": 139.869,
    "officialUrl": "https://mommy-kasai.com/",
    "sourcePage": "https://mommy-kasai.com/news/",
    "pdfUrl": "https://mommy-kasai.com/admin/wp-content/uploads/2026/06/493907759852a09d2cd4d1d1446f0c1f.pdf",
    "color": "#5cb85c"
  },
  {
    "id": "nakakasai",
    "name": "中葛西子育てひろば（共育プラザ一之江）",
    "region": "江戸川区",
    "address": "東京都江戸川区中葛西1-2-8（運営: 共育プラザ一之江）",
    "lat": 35.6625,
    "lng": 139.869,
    "officialUrl": "https://mommy-ichinoe.com/",
    "sourcePage": "https://mommy-ichinoe.com/news/",
    "pdfUrl": "https://mommy-ichinoe.com/news/889/",
    "color": "#a06cd5"
  },
  {
    "id": "seishincho",
    "name": "清新町子育てひろば",
    "region": "江戸川区",
    "address": "〒134-0087 東京都江戸川区清新町1-4-2（清新町コミュニティ会館1F）",
    "lat": 35.6588,
    "lng": 139.8525,
    "officialUrl": "https://www.city.edogawa.tokyo.jp/e047/kuseijoho/gaiyo/shisetsuguide/bunya/kosodate/hiroba/seisinchousapo30-4.html",
    "sourcePage": "https://www.city.edogawa.tokyo.jp/e047/kuseijoho/gaiyo/shisetsuguide/bunya/kosodate/hiroba/seisinchousapo30-4.html",
    "pdfUrl": "https://www.city.edogawa.tokyo.jp/documents/7200/seishincho7.pdf",
    "color": "#d6477f"
  },
  {
    "id": "kasai_hc",
    "name": "葛西健康サポートセンター子育てひろば",
    "region": "江戸川区",
    "address": "東京都江戸川区中葛西3-10-1",
    "lat": 35.6658,
    "lng": 139.8711,
    "officialUrl": "https://www.city.edogawa.tokyo.jp/e047/kuseijoho/gaiyo/shisetsuguide/bunya/kosodate/hiroba/kasai.html",
    "sourcePage": "https://www.city.edogawa.tokyo.jp/e047/kuseijoho/gaiyo/shisetsuguide/bunya/kosodate/hiroba/kasai.html",
    "pdfUrl": "https://www.city.edogawa.tokyo.jp/e047/kuseijoho/gaiyo/shisetsuguide/bunya/kosodate/hiroba/kasai.html",
    "color": "#2bb3a3"
  },
  {
    "id": "funabori",
    "name": "船堀子育てひろば",
    "region": "江戸川区",
    "address": "東京都江戸川区船堀1-3-1（船堀コミュニティ会館1F）",
    "lat": 35.6865,
    "lng": 139.8599,
    "officialUrl": "https://www.city.edogawa.tokyo.jp/e047/kuseijoho/gaiyo/shisetsuguide/bunya/kosodate/hiroba/kosodatehiroba.html",
    "sourcePage": "https://www.city.edogawa.tokyo.jp/e047/kuseijoho/gaiyo/shisetsuguide/bunya/kosodate/hiroba/funaborikosodatehirobayoteihyou.html",
    "pdfUrl": "https://www.city.edogawa.tokyo.jp/e047/kuseijoho/gaiyo/shisetsuguide/bunya/kosodate/hiroba/funaborikosodatehirobayoteihyou.html",
    "color": "#e0a32e"
  },
  {
    "id": "beteru",
    "name": "ベーテルひろば",
    "region": "江戸川区",
    "address": "東京都江戸川区東葛西8-11-33",
    "lat": 35.6549,
    "lng": 139.8792,
    "officialUrl": "https://www.city.edogawa.tokyo.jp/e047/kuseijoho/gaiyo/shisetsuguide/bunya/kosodate/hiroba/be-teru.html",
    "sourcePage": "https://www.city.edogawa.tokyo.jp/e047/kuseijoho/gaiyo/shisetsuguide/bunya/kosodate/hiroba/be-teru.html",
    "pdfUrl": "https://www.city.edogawa.tokyo.jp/e047/kuseijoho/gaiyo/shisetsuguide/bunya/kosodate/hiroba/be-teru.html",
    "color": "#7e6cd6"
  },
  {
    "id": "minamisuna",
    "name": "南砂児童館",
    "region": "江東区",
    "address": "〒136-0076 東京都江東区南砂2-3-17",
    "lat": 35.6729,
    "lng": 139.8229,
    "officialUrl": "https://www.city.koto.lg.jp/281062/kodomo/hokago/jidokan/access.html",
    "sourcePage": "https://www.city.koto.lg.jp/281062/kodomo/hokago/jidokan/calendar.html",
    "pdfUrl": "https://www.city.koto.lg.jp/281062/kodomo/hokago/jidokan/calendar.html",
    "color": "#d2691e"
  }
]
