[
  {
    "id": "bunkyo-honkomagomeminami",
    "name": "本駒込南児童館",
    "region": "文京区",
    "address": "〒113-0021 東京都文京区本駒込3-11-14",
    "lat": 35.7276907,
    "lng": 139.7548753,
    "officialUrl": "https://www.city.bunkyo.lg.jp/kosodatekyouiku/ibashozukuri/jidoukan/honkomagomeminami/index.html",
    "sourcePage": "https://www.city.bunkyo.lg.jp/b050/p002414.html",
    "pdfUrl": "https://www.city.bunkyo.lg.jp/b050/p002414.html",
    "color": "#4f86c6"
  },
  {
    "id": "bunkyo-yanagimachi",
    "name": "柳町児童館",
    "region": "文京区",
    "address": "〒112-0002 東京都文京区小石川1-17-1（柳町小学校改築工事のため「ぷち・やなぎちょうじどうかん」としてエルアージュ小石川内で代替実施中）",
    "lat": 35.7119279,
    "lng": 139.7524975,
    "officialUrl": "https://www.city.bunkyo.lg.jp/kosodatekyouiku/ibashozukuri/jidoukan/yanagimachi/index.html",
    "sourcePage": "https://www.city.bunkyo.lg.jp/b050/p002423.html",
    "pdfUrl": "https://www.city.bunkyo.lg.jp/b050/p002423.html",
    "color": "#e8804f"
  },
  {
    "id": "bunkyo-hisakata",
    "name": "久堅児童館",
    "region": "文京区",
    "address": "〒112-0002 東京都文京区小石川5-27-7",
    "lat": 35.7181095,
    "lng": 139.740382,
    "officialUrl": "https://www.city.bunkyo.lg.jp/kosodatekyouiku/ibashozukuri/jidoukan/hisakata/index.html",
    "sourcePage": "https://www.city.bunkyo.lg.jp/b050/p002430.html",
    "pdfUrl": "https://www.city.bunkyo.lg.jp/b050/p002430.html",
    "color": "#5cb85c"
  },
  {
    "id": "bunkyo-hakusanhigashi",
    "name": "白山東児童館",
    "region": "文京区",
    "address": "〒113-0001 東京都文京区白山1-29-10（施設改修工事のため「白山東BASE」で代替実施中、令和8年7月頃完了予定）",
    "lat": 35.7187802,
    "lng": 139.7533196,
    "officialUrl": "https://www.city.bunkyo.lg.jp/kosodatekyouiku/ibashozukuri/jidoukan/hakusanhigashi/index.html",
    "sourcePage": "https://www.city.bunkyo.lg.jp/b050/p002433.html",
    "pdfUrl": "https://www.city.bunkyo.lg.jp/b050/p002433.html",
    "color": "#a06cd5"
  },
  {
    "id": "bunkyo-sengoku",
    "name": "千石児童館",
    "region": "文京区",
    "address": "〒112-0011 東京都文京区千石1-4-3",
    "lat": 35.7258072,
    "lng": 139.7439802,
    "officialUrl": "https://www.city.bunkyo.lg.jp/kosodatekyouiku/ibashozukuri/jidoukan/sengoku/index.html",
    "sourcePage": "https://www.city.bunkyo.lg.jp/b050/p002436.html",
    "pdfUrl": "https://www.city.bunkyo.lg.jp/b050/p002436.html",
    "color": "#d6477f"
  },
  {
    "id": "bunkyo-sengokunishi",
    "name": "千石西児童館",
    "region": "文京区",
    "address": "〒112-0011 東京都文京区千石3-15-15",
    "lat": 35.7262405,
    "lng": 139.738597,
    "officialUrl": "https://www.city.bunkyo.lg.jp/kosodatekyouiku/ibashozukuri/jidoukan/sengokunishi/index.html",
    "sourcePage": "https://www.city.bunkyo.lg.jp/b050/p002439.html",
    "pdfUrl": "https://www.city.bunkyo.lg.jp/b050/p002439.html",
    "color": "#2bb3a3"
  },
  {
    "id": "bunkyo-suidou",
    "name": "水道児童館",
    "region": "文京区",
    "address": "〒112-0005 東京都文京区水道1-3-26",
    "lat": 35.709285,
    "lng": 139.7421911,
    "officialUrl": "https://www.city.bunkyo.lg.jp/kosodatekyouiku/ibashozukuri/jidoukan/suidou/index.html",
    "sourcePage": "https://www.city.bunkyo.lg.jp/b050/p002442.html",
    "pdfUrl": "https://www.city.bunkyo.lg.jp/b050/p002442.html",
    "color": "#e0a32e"
  },
  {
    "id": "bunkyo-kohinatadaimachi",
    "name": "小日向台町児童館",
    "region": "文京区",
    "address": "〒112-0006 東京都文京区小日向2-2-2",
    "lat": 35.7125627,
    "lng": 139.7340533,
    "officialUrl": "https://www.city.bunkyo.lg.jp/kosodatekyouiku/ibashozukuri/jidoukan/kohinatadaimachi/index.html",
    "sourcePage": "https://www.city.bunkyo.lg.jp/b050/p002447.html",
    "pdfUrl": "https://www.city.bunkyo.lg.jp/b050/p002447.html",
    "color": "#7e6cd6"
  },
  {
    "id": "bunkyo-ootsuka",
    "name": "大塚児童館",
    "region": "文京区",
    "address": "〒112-0012 東京都文京区大塚6-22-19",
    "lat": 35.724983,
    "lng": 139.7259235,
    "officialUrl": "https://www.city.bunkyo.lg.jp/kosodatekyouiku/ibashozukuri/jidoukan/ootuka/index.html",
    "sourcePage": "https://www.city.bunkyo.lg.jp/b050/p002450.html",
    "pdfUrl": "https://www.city.bunkyo.lg.jp/b050/p002450.html",
    "color": "#d2691e"
  },
  {
    "id": "bunkyo-mejirodai",
    "name": "目白台児童館",
    "region": "文京区",
    "address": "〒112-0015 東京都文京区目白台1-5-1",
    "lat": 35.7145043,
    "lng": 139.7209902,
    "officialUrl": "https://www.city.bunkyo.lg.jp/kosodatekyouiku/ibashozukuri/jidoukan/mejirodai/index.html",
    "sourcePage": "https://www.city.bunkyo.lg.jp/b050/p002453.html",
    "pdfUrl": "https://www.city.bunkyo.lg.jp/b050/p002453.html",
    "color": "#3b9e8f"
  },
  {
    "id": "bunkyo-mejirodai2",
    "name": "目白台第二児童館",
    "region": "文京区",
    "address": "〒112-0015 東京都文京区目白台3-18-7",
    "lat": 35.7168988,
    "lng": 139.7256544,
    "officialUrl": "https://www.city.bunkyo.lg.jp/kosodatekyouiku/ibashozukuri/jidoukan/mejirodai2/index.html",
    "sourcePage": "https://www.city.bunkyo.lg.jp/b050/p002456.html",
    "pdfUrl": "https://www.city.bunkyo.lg.jp/b050/p002456.html",
    "color": "#c0567a"
  },
  {
    "id": "bunkyo-yushima",
    "name": "湯島児童館",
    "region": "文京区",
    "address": "〒113-0033 東京都文京区本郷3-10-18 湯島総合センター5階",
    "lat": 35.7066386,
    "lng": 139.7599627,
    "officialUrl": "https://www.city.bunkyo.lg.jp/kosodatekyouiku/ibashozukuri/jidoukan/yushima/index.html",
    "sourcePage": "https://www.city.bunkyo.lg.jp/b050/p002459.html",
    "pdfUrl": "https://www.city.bunkyo.lg.jp/b050/p002459.html",
    "color": "#5b8def"
  },
  {
    "id": "bunkyo-hongo",
    "name": "本郷児童館",
    "region": "文京区",
    "address": "〒113-0033 東京都文京区本郷5-30-8",
    "lat": 35.7100549,
    "lng": 139.7582656,
    "officialUrl": "https://www.city.bunkyo.lg.jp/kosodatekyouiku/ibashozukuri/jidoukan/hongou/index.html",
    "sourcePage": "https://www.city.bunkyo.lg.jp/b050/p007566.html",
    "pdfUrl": "https://www.city.bunkyo.lg.jp/b050/p007566.html",
    "color": "#6aa84f"
  },
  {
    "id": "bunkyo-nezu",
    "name": "根津児童館",
    "region": "文京区",
    "address": "〒113-0031 東京都文京区根津1-14-3",
    "lat": 35.7187911,
    "lng": 139.7632746,
    "officialUrl": "https://www.city.bunkyo.lg.jp/kosodatekyouiku/ibashozukuri/jidoukan/nezu/index.html",
    "sourcePage": "https://www.city.bunkyo.lg.jp/b050/p002471.html",
    "pdfUrl": "https://www.city.bunkyo.lg.jp/b050/p002471.html",
    "color": "#b5892f"
  },
  {
    "id": "bunkyo-shiomi",
    "name": "しおみ児童館",
    "region": "文京区",
    "address": "〒113-0022 東京都文京区千駄木2-27-8",
    "lat": 35.7229274,
    "lng": 139.7624499,
    "officialUrl": "https://www.city.bunkyo.lg.jp/kosodatekyouiku/ibashozukuri/jidoukan/shiomi/index.html",
    "sourcePage": "https://www.city.bunkyo.lg.jp/b050/p002475.html",
    "pdfUrl": "https://www.city.bunkyo.lg.jp/b050/p002475.html",
    "color": "#8e5ad6"
  },
  {
    "id": "bunkyo-honkomagome",
    "name": "本駒込児童館",
    "region": "文京区",
    "address": "〒113-0021 東京都文京区本駒込5-63-2",
    "lat": 35.7327519,
    "lng": 139.7523621,
    "officialUrl": "https://www.city.bunkyo.lg.jp/kosodatekyouiku/ibashozukuri/jidoukan/honkomagome/index.html",
    "sourcePage": "https://www.city.bunkyo.lg.jp/b050/p002479.html",
    "pdfUrl": "https://www.city.bunkyo.lg.jp/b050/p002479.html",
    "color": "#c95555"
  },
  {
    "id": "bunkyo-edogawabashi-hiroba",
    "name": "子育てひろば江戸川橋",
    "region": "文京区",
    "address": "〒112-0006 東京都文京区小日向2-16-15 文京総合福祉センター3階",
    "lat": 35.7125627,
    "lng": 139.7340533,
    "officialUrl": "https://www.city.bunkyo.lg.jp/b022/p007785.html",
    "sourcePage": "https://team-lien.com/service/child_edogawa.html",
    "pdfUrl": "https://team-lien.com/service/child_edogawa.html",
    "color": "#4f86c6"
  }
]
