[
  {
    "id": "katsushika-shin-mizumoto",
    "name": "新水元児童館",
    "region": "葛飾区",
    "address": "〒125-0033 東京都葛飾区東水元3-5-7",
    "lat": 35.7841,
    "lng": 139.867,
    "officialUrl": "https://www.city.katsushika.lg.jp/institution/1030224/1007106/1007131.html",
    "sourcePage": "https://www.city.katsushika.lg.jp/event/1000114/1000779/index.html",
    "pdfUrl": "https://www.city.katsushika.lg.jp/event/1000114/1000779/index.html",
    "color": "#4f86c6"
  },
  {
    "id": "katsushika-koda",
    "name": "幸田児童館",
    "region": "葛飾区",
    "address": "〒125-0031 東京都葛飾区西水元2-16-10",
    "lat": 35.7857,
    "lng": 139.8496,
    "officialUrl": "https://www.city.katsushika.lg.jp/institution/1030224/1007106/1007139.html",
    "sourcePage": "https://www.city.katsushika.lg.jp/event/1000114/1000780/index.html",
    "pdfUrl": "https://www.city.katsushika.lg.jp/event/1000114/1000780/index.html",
    "color": "#e8804f"
  },
  {
    "id": "katsushika-hananoki",
    "name": "花の木児童館",
    "region": "葛飾区",
    "address": "〒125-0035 東京都葛飾区南水元3-7-1",
    "lat": 35.775,
    "lng": 139.8642,
    "officialUrl": "https://www.city.katsushika.lg.jp/institution/1030224/1007106/1007124.html",
    "sourcePage": "https://www.city.katsushika.lg.jp/event/1000114/1000781/index.html",
    "pdfUrl": "https://www.city.katsushika.lg.jp/event/1000114/1000781/index.html",
    "color": "#5cb85c"
  },
  {
    "id": "katsushika-higashi-kanamachi",
    "name": "東金町児童館",
    "region": "葛飾区",
    "address": "〒125-0041 東京都葛飾区東金町5-22-18",
    "lat": 35.7787,
    "lng": 139.8782,
    "officialUrl": "https://www.city.katsushika.lg.jp/institution/1030224/1007106/1007122.html",
    "sourcePage": "https://www.city.katsushika.lg.jp/event/1000114/1000782/index.html",
    "pdfUrl": "https://www.city.katsushika.lg.jp/event/1000114/1000782/index.html",
    "color": "#a06cd5"
  },
  {
    "id": "katsushika-minami-shinjuku",
    "name": "南新宿児童館",
    "region": "葛飾区",
    "address": "〒125-0051 東京都葛飾区新宿1-23-4",
    "lat": 35.7582,
    "lng": 139.8594,
    "officialUrl": "https://www.city.katsushika.lg.jp/institution/1030224/1007106/1007117.html",
    "sourcePage": "https://www.city.katsushika.lg.jp/event/1000114/1000783/index.html",
    "pdfUrl": "https://www.city.katsushika.lg.jp/event/1000114/1000783/index.html",
    "color": "#d6477f"
  },
  {
    "id": "katsushika-suehiro",
    "name": "末広児童館",
    "region": "葛飾区",
    "address": "〒125-0042 東京都葛飾区金町5-4-1",
    "lat": 35.7666,
    "lng": 139.8682,
    "officialUrl": "https://www.city.katsushika.lg.jp/institution/1030224/1007106/1007130.html",
    "sourcePage": "https://www.city.katsushika.lg.jp/event/1000114/1000784/index.html",
    "pdfUrl": "https://www.city.katsushika.lg.jp/event/1000114/1000784/index.html",
    "color": "#2bb3a3"
  },
  {
    "id": "katsushika-shibamata",
    "name": "柴又児童館",
    "region": "葛飾区",
    "address": "〒125-0052 東京都葛飾区柴又2-4-5",
    "lat": 35.7584,
    "lng": 139.8692,
    "officialUrl": "https://www.city.katsushika.lg.jp/institution/1030224/1007106/1007136.html",
    "sourcePage": "https://www.city.katsushika.lg.jp/event/1000114/1000785/index.html",
    "pdfUrl": "https://www.city.katsushika.lg.jp/event/1000114/1000785/index.html",
    "color": "#e0a32e"
  },
  {
    "id": "katsushika-shin-shibamata",
    "name": "新柴又児童館",
    "region": "葛飾区",
    "address": "〒125-0052 東京都葛飾区柴又5-33-8",
    "lat": 35.7523,
    "lng": 139.8835,
    "officialUrl": "https://www.city.katsushika.lg.jp/institution/1030224/1007106/1007135.html",
    "sourcePage": "https://www.city.katsushika.lg.jp/event/1000114/1000786/index.html",
    "pdfUrl": "https://www.city.katsushika.lg.jp/event/1000114/1000786/index.html",
    "color": "#7e6cd6"
  },
  {
    "id": "katsushika-kamakura",
    "name": "鎌倉児童館",
    "region": "葛飾区",
    "address": "〒125-0053 東京都葛飾区鎌倉2-6-20",
    "lat": 35.7461,
    "lng": 139.8762,
    "officialUrl": "https://www.city.katsushika.lg.jp/institution/1030224/1007106/1007141.html",
    "sourcePage": "https://www.city.katsushika.lg.jp/event/1000114/1000788/index.html",
    "pdfUrl": "https://www.city.katsushika.lg.jp/event/1000114/1000788/index.html",
    "color": "#d2691e"
  },
  {
    "id": "katsushika-takasago",
    "name": "高砂児童館",
    "region": "葛飾区",
    "address": "〒125-0054 東京都葛飾区高砂5-6-7",
    "lat": 35.7518,
    "lng": 139.8687,
    "officialUrl": "https://www.city.katsushika.lg.jp/institution/1030224/1007106/1007129.html",
    "sourcePage": "https://www.city.katsushika.lg.jp/event/1000114/1000789/index.html",
    "pdfUrl": "https://www.city.katsushika.lg.jp/event/1000114/1000789/index.html",
    "color": "#3b9e8f"
  },
  {
    "id": "katsushika-higashi-okudo",
    "name": "東奥戸児童館",
    "region": "葛飾区",
    "address": "〒124-0022 東京都葛飾区奥戸4-20-11",
    "lat": 35.7283,
    "lng": 139.8659,
    "officialUrl": "https://www.city.katsushika.lg.jp/institution/1030224/1007106/1007123.html",
    "sourcePage": "https://www.city.katsushika.lg.jp/event/1000114/1000790/index.html",
    "pdfUrl": "https://www.city.katsushika.lg.jp/event/1000114/1000790/index.html",
    "color": "#c0567a"
  },
  {
    "id": "katsushika-minami-okudo",
    "name": "南奥戸児童館",
    "region": "葛飾区",
    "address": "〒124-0022 東京都葛飾区奥戸2-30-11",
    "lat": 35.7348,
    "lng": 139.8578,
    "officialUrl": "https://www.city.katsushika.lg.jp/institution/1030224/1007106/1007118.html",
    "sourcePage": "https://www.city.katsushika.lg.jp/event/1000114/1000792/index.html",
    "pdfUrl": "https://www.city.katsushika.lg.jp/event/1000114/1000792/index.html",
    "color": "#5b8def"
  },
  {
    "id": "katsushika-nishi-okudo",
    "name": "西奥戸児童館",
    "region": "葛飾区",
    "address": "〒124-0022 東京都葛飾区奥戸1-12-1",
    "lat": 35.7298,
    "lng": 139.8567,
    "officialUrl": "https://www.city.katsushika.lg.jp/institution/1030224/1007106/1007126.html",
    "sourcePage": "https://www.city.katsushika.lg.jp/event/1000114/1000793/index.html",
    "pdfUrl": "https://www.city.katsushika.lg.jp/event/1000114/1000793/index.html",
    "color": "#6aa84f"
  },
  {
    "id": "katsushika-hakucho",
    "name": "白鳥児童館",
    "region": "葛飾区",
    "address": "〒124-0002 東京都葛飾区西亀有1-18-6",
    "lat": 35.7579,
    "lng": 139.8397,
    "officialUrl": "https://www.city.katsushika.lg.jp/institution/1030224/1007106/1007133.html",
    "sourcePage": "https://www.city.katsushika.lg.jp/event/1000114/1000795/index.html",
    "pdfUrl": "https://www.city.katsushika.lg.jp/event/1000114/1000795/index.html",
    "color": "#b5892f"
  },
  {
    "id": "katsushika-nishi-kameari",
    "name": "西亀有児童館",
    "region": "葛飾区",
    "address": "〒125-0002 東京都葛飾区西亀有4-24-1",
    "lat": 35.7651,
    "lng": 139.8409,
    "officialUrl": "https://www.city.katsushika.lg.jp/institution/1030224/1007106/1007125.html",
    "sourcePage": "https://www.city.katsushika.lg.jp/event/1000114/1000796/index.html",
    "pdfUrl": "https://www.city.katsushika.lg.jp/event/1000114/1000796/index.html",
    "color": "#8e5ad6"
  },
  {
    "id": "katsushika-kameari",
    "name": "亀有児童館",
    "region": "葛飾区",
    "address": "〒125-0061 東京都葛飾区亀有1-17-5",
    "lat": 35.7584,
    "lng": 139.8463,
    "officialUrl": "https://www.city.katsushika.lg.jp/institution/1030224/1007106/1007140.html",
    "sourcePage": "https://www.city.katsushika.lg.jp/event/1000114/1000797/index.html",
    "pdfUrl": "https://www.city.katsushika.lg.jp/event/1000114/1000797/index.html",
    "color": "#c95555"
  },
  {
    "id": "katsushika-nakamichi",
    "name": "中道児童館",
    "region": "葛飾区",
    "address": "〒124-0002 東京都葛飾区西亀有1-2-7",
    "lat": 35.7579,
    "lng": 139.8397,
    "officialUrl": "https://www.city.katsushika.lg.jp/institution/1030224/1007106/1007127.html",
    "sourcePage": "https://www.city.katsushika.lg.jp/event/1000114/1000798/index.html",
    "pdfUrl": "https://www.city.katsushika.lg.jp/event/1000114/1000798/index.html",
    "color": "#4f86c6"
  },
  {
    "id": "katsushika-umeda",
    "name": "梅田児童館",
    "region": "葛飾区",
    "address": "〒124-0012 東京都葛飾区立石3-26-10",
    "lat": 35.7396,
    "lng": 139.8442,
    "officialUrl": "https://www.city.katsushika.lg.jp/institution/1030224/1007106/1007142.html",
    "sourcePage": "https://www.city.katsushika.lg.jp/event/1000114/1000800/index.html",
    "pdfUrl": "https://www.city.katsushika.lg.jp/event/1000114/1000800/index.html",
    "color": "#e8804f"
  },
  {
    "id": "katsushika-aoto",
    "name": "青戸児童館",
    "region": "葛飾区",
    "address": "〒125-0062 東京都葛飾区青戸3-10-5",
    "lat": 35.7463,
    "lng": 139.8521,
    "officialUrl": "https://www.city.katsushika.lg.jp/institution/1030224/1007106/1007144.html",
    "sourcePage": "https://www.city.katsushika.lg.jp/event/1000114/1000801/index.html",
    "pdfUrl": "https://www.city.katsushika.lg.jp/event/1000114/1000801/index.html",
    "color": "#5cb85c"
  },
  {
    "id": "katsushika-aoto-chuo",
    "name": "青戸中央児童館",
    "region": "葛飾区",
    "address": "〒125-0062 東京都葛飾区青戸6-16-12",
    "lat": 35.7501,
    "lng": 139.8583,
    "officialUrl": "https://www.city.katsushika.lg.jp/institution/1030224/1007106/1007143.html",
    "sourcePage": "https://www.city.katsushika.lg.jp/event/1000114/1000802/index.html",
    "pdfUrl": "https://www.city.katsushika.lg.jp/event/1000114/1000802/index.html",
    "color": "#a06cd5"
  },
  {
    "id": "katsushika-kosuge",
    "name": "小菅児童館",
    "region": "葛飾区",
    "address": "〒124-0001 東京都葛飾区小菅2-19-1",
    "lat": 35.7518,
    "lng": 139.8243,
    "officialUrl": "https://www.city.katsushika.lg.jp/institution/1030224/1007106/1007138.html",
    "sourcePage": "https://www.city.katsushika.lg.jp/event/1000114/1000803/index.html",
    "pdfUrl": "https://www.city.katsushika.lg.jp/event/1000114/1000803/index.html",
    "color": "#d6477f"
  },
  {
    "id": "katsushika-takaracho",
    "name": "宝町児童館",
    "region": "葛飾区",
    "address": "〒124-0005 東京都葛飾区宝町1-5-1",
    "lat": 35.7419,
    "lng": 139.8365,
    "officialUrl": "https://www.city.katsushika.lg.jp/institution/1030224/1007106/1007128.html",
    "sourcePage": "https://www.city.katsushika.lg.jp/event/1000114/1000804/index.html",
    "pdfUrl": "https://www.city.katsushika.lg.jp/event/1000114/1000804/index.html",
    "color": "#2bb3a3"
  },
  {
    "id": "katsushika-horikiri",
    "name": "堀切児童館",
    "region": "葛飾区",
    "address": "〒124-0006 東京都葛飾区堀切1-9-18",
    "lat": 35.7395,
    "lng": 139.8274,
    "officialUrl": "https://www.city.katsushika.lg.jp/institution/1030224/1007106/1007119.html",
    "sourcePage": "https://www.city.katsushika.lg.jp/event/1000114/1000805/index.html",
    "pdfUrl": "https://www.city.katsushika.lg.jp/event/1000114/1000805/index.html",
    "color": "#e0a32e"
  },
  {
    "id": "katsushika-higashi-horikiri",
    "name": "東堀切児童館",
    "region": "葛飾区",
    "address": "〒124-0004 東京都葛飾区東堀切2-20-8",
    "lat": 35.7522,
    "lng": 139.8359,
    "officialUrl": "https://www.city.katsushika.lg.jp/institution/1030224/1007106/1007121.html",
    "sourcePage": "https://www.city.katsushika.lg.jp/event/1000114/1000806/index.html",
    "pdfUrl": "https://www.city.katsushika.lg.jp/event/1000114/1000806/index.html",
    "color": "#7e6cd6"
  },
  {
    "id": "katsushika-mirai-plaza-kamakura",
    "name": "子ども未来プラザ鎌倉",
    "region": "葛飾区",
    "address": "〒125-0053 東京都葛飾区鎌倉1-7-3",
    "lat": 35.7427,
    "lng": 139.8782,
    "officialUrl": "https://www.city.katsushika.lg.jp/institution/1030224/1022110/1022091.html",
    "sourcePage": "https://www.city.katsushika.lg.jp/event/1022292/1022293/index.html",
    "pdfUrl": "https://www.city.katsushika.lg.jp/event/1022292/1022293/index.html",
    "color": "#d2691e"
  },
  {
    "id": "katsushika-mirai-plaza-nishi-shinkoiwa",
    "name": "子ども未来プラザ西新小岩",
    "region": "葛飾区",
    "address": "〒124-0025 東京都葛飾区西新小岩4-33-2",
    "lat": 35.7205,
    "lng": 139.8528,
    "officialUrl": "https://www.city.katsushika.lg.jp/institution/1030224/1022110/1028895.html",
    "sourcePage": "https://www.city.katsushika.lg.jp/event/1022292/1028896/index.html",
    "pdfUrl": "https://www.city.katsushika.lg.jp/event/1022292/1028896/index.html",
    "color": "#3b9e8f"
  },
  {
    "id": "katsushika-mirai-plaza-higashi-yotsugi",
    "name": "子ども未来プラザ東四つ木",
    "region": "葛飾区",
    "address": "〒124-0014 東京都葛飾区東四つ木2-15-11",
    "lat": 35.7297,
    "lng": 139.8444,
    "officialUrl": "https://www.city.katsushika.lg.jp/institution/1030224/1022110/1033787.html",
    "sourcePage": "https://www.city.katsushika.lg.jp/event/1022292/1033846/index.html",
    "pdfUrl": "https://www.city.katsushika.lg.jp/event/1022292/1033846/index.html",
    "color": "#c0567a"
  },
  {
    "id": "katsushika-kanamachi-kodomo-center",
    "name": "金町子どもセンター",
    "region": "葛飾区",
    "address": "〒125-0041 東京都葛飾区東金町3-8-1",
    "lat": 35.7725,
    "lng": 139.8736,
    "officialUrl": "https://www.city.katsushika.lg.jp/institution/1030224/1007107/1007147.html",
    "sourcePage": "https://www.city.katsushika.lg.jp/event/1000115/index.html",
    "pdfUrl": "https://www.city.katsushika.lg.jp/event/1000115/index.html",
    "color": "#5b8def"
  }
]
