[
  {
    "id": "nerima-heiwadai",
    "name": "平和台児童館",
    "region": "練馬区",
    "address": "東京都練馬区平和台2丁目18番14号",
    "officialUrl": "https://www.heiwadai-jidou.jp/",
    "sourcePage": "https://www.heiwadai-jidou.jp/",
    "pdfUrl": "https://www.heiwadai-jidou.jp/_src/82968840/heiwadai_letter_2607.pdf?v=1783999655382",
    "color": "#4f86c6",
    "lat": 35.7604,
    "lng": 139.6614
  },
  {
    "id": "nerima-mirai-aozora",
    "name": "みらい青空児童館",
    "region": "練馬区",
    "address": "東京都練馬区旭丘2丁目40番1号",
    "officialUrl": "https://www.city.nerima.tokyo.jp/kosodatekyoiku/kodomo/jidokan/Miraiaozora/index.html",
    "sourcePage": "https://www.city.nerima.tokyo.jp/kosodatekyoiku/kodomo/jidokan/Miraiaozora/index.html",
    "pdfUrl": "https://www.city.nerima.tokyo.jp/kosodatekyoiku/kodomo/jidokan/Miraiaozora/index.files/syo0807.pdf",
    "color": "#e8804f",
    "lat": 35.737,
    "lng": 139.678
  },
  {
    "id": "nerima-shakujii",
    "name": "石神井児童館",
    "region": "練馬区",
    "address": "東京都練馬区石神井町7丁目28番21号",
    "officialUrl": "https://www.city.nerima.tokyo.jp/kosodatekyoiku/kodomo/jidokan/shakujii_jidokan/index.html",
    "sourcePage": "https://www.city.nerima.tokyo.jp/kosodatekyoiku/kodomo/jidokan/shakujii_jidokan/event_itiran/index.html",
    "pdfUrl": "https://www.city.nerima.tokyo.jp/kosodatekyoiku/kodomo/jidokan/shakujii_jidokan/event_itiran/syougakusei07.images/jido07omote.jpg",
    "color": "#5cb85c",
    "lat": 35.7449,
    "lng": 139.5985
  },
  {
    "id": "nerima-kita-oizumi",
    "name": "北大泉児童館",
    "region": "練馬区",
    "address": "東京都練馬区大泉町4丁目15番15号",
    "officialUrl": "https://mommy-kitaoizumi.com/",
    "sourcePage": "https://mommy-kitaoizumi.com/news/163/",
    "pdfUrl": "https://mommy-kitaoizumi.com/admin/wp-content/uploads/2026/07/2e994b391c86f0c278700f696efbd0bc.pdf",
    "color": "#a06cd5",
    "lat": 35.7632,
    "lng": 139.6002
  },
  {
    "id": "nerima-hikarigaoka",
    "name": "光が丘児童館",
    "region": "練馬区",
    "address": "東京都練馬区光が丘1丁目3番1号",
    "officialUrl": "https://fukushi.unchusha.com/hikari-ji/",
    "sourcePage": "https://fukushi.unchusha.com/hikari-ji/otayori.html",
    "pdfUrl": "https://fukushi.unchusha.com/hikari-ji/otayori.html",
    "color": "#d6477f",
    "lat": 35.7681,
    "lng": 139.6386
  },
  {
    "id": "nerima-kami-shakujii",
    "name": "上石神井児童館",
    "region": "練馬区",
    "address": "東京都練馬区上石神井1丁目5番2号",
    "officialUrl": "https://kamishakujii-jidoukan.jp/",
    "sourcePage": "https://kamishakujii-jidoukan.jp/8%e6%9c%88%e5%b0%8f%e5%ad%a6%e7%94%9f%e3%81%8a%e3%81%9f%e3%82%88%e3%82%8a/",
    "pdfUrl": "https://kamishakujii-jidoukan.jp/wp-content/uploads/2026/07/%E3%82%B9%E3%83%A9%E3%82%A4%E3%83%891-709x1024.jpg",
    "color": "#2bb3a3",
    "lat": 35.7254,
    "lng": 139.5925
  },
  {
    "id": "nerima-doshida",
    "name": "土支田児童館",
    "region": "練馬区",
    "address": "東京都練馬区土支田2丁目32番8号",
    "officialUrl": "https://www.city.nerima.tokyo.jp/kosodatekyoiku/kodomo/jidokan/doshida_jidokan/index.html",
    "sourcePage": "https://www.city.nerima.tokyo.jp/kosodatekyoiku/kodomo/jidokan/doshida_jidokan/index.html",
    "pdfUrl": "https://www.city.nerima.tokyo.jp/kosodatekyoiku/kodomo/jidokan/doshida_jidokan/index.html",
    "color": "#e0a32e",
    "lat": 35.7632,
    "lng": 139.6141
  },
  {
    "id": "nerima-kitamachi-harunohi",
    "name": "北町はるのひ児童館",
    "region": "練馬区",
    "address": "東京都練馬区北町6丁目35番7号",
    "officialUrl": "https://www.city.nerima.tokyo.jp/kosodatekyoiku/kodomo/jidokan/harunohi/index.html",
    "sourcePage": "https://www.city.nerima.tokyo.jp/kosodatekyoiku/kodomo/jidokan/harunohi/index.html",
    "pdfUrl": "https://www.city.nerima.tokyo.jp/kosodatekyoiku/kodomo/jidokan/harunohi/index.html",
    "color": "#7e6cd6",
    "lat": 35.757,
    "lng": 139.6495
  },
  {
    "id": "nerima-nakamura",
    "name": "中村児童館",
    "region": "練馬区",
    "address": "東京都練馬区中村2丁目25番3号",
    "officialUrl": "https://www.city.nerima.tokyo.jp/kosodatekyoiku/kodomo/jidokan/nakamura_jidokan/index.html",
    "sourcePage": "https://www.city.nerima.tokyo.jp/kosodatekyoiku/kodomo/jidokan/nakamura_jidokan/index.html",
    "pdfUrl": "https://www.city.nerima.tokyo.jp/kosodatekyoiku/kodomo/jidokan/nakamura_jidokan/index.html",
    "color": "#d2691e",
    "lat": 35.7317,
    "lng": 139.6425
  },
  {
    "id": "nerima-minami-tanaka",
    "name": "南田中児童館",
    "region": "練馬区",
    "address": "東京都練馬区南田中5丁目15番25号",
    "officialUrl": "https://www.city.nerima.tokyo.jp/kosodatekyoiku/kodomo/jidokan/minamitanaka/index.html",
    "sourcePage": "https://www.city.nerima.tokyo.jp/kosodatekyoiku/kodomo/jidokan/minamitanaka/index.html",
    "pdfUrl": "https://www.city.nerima.tokyo.jp/kosodatekyoiku/kodomo/jidokan/minamitanaka/index.html",
    "color": "#3b9e8f",
    "lat": 35.7379,
    "lng": 139.6117
  },
  {
    "id": "nerima-kitamachi",
    "name": "北町児童館",
    "region": "練馬区",
    "address": "東京都練馬区北町1丁目19番17号",
    "officialUrl": "https://list.nihonhoiku.co.jp/school/detail/kitamachiji",
    "sourcePage": "https://list.nihonhoiku.co.jp/school/detail/kitamachiji",
    "pdfUrl": "https://list.nihonhoiku.co.jp/school/detail/kitamachiji",
    "color": "#c0567a",
    "lat": 35.7643,
    "lng": 139.668
  },
  {
    "id": "nerima-sekimachi",
    "name": "関町児童館",
    "region": "練馬区",
    "address": "東京都練馬区関町南4丁目15番7-102号",
    "officialUrl": "https://www.city.nerima.tokyo.jp/kosodatekyoiku/kodomo/jidokan/sekimachi/index.html",
    "sourcePage": "https://www.city.nerima.tokyo.jp/kosodatekyoiku/kodomo/jidokan/sekimachi/index.html",
    "pdfUrl": "https://www.city.nerima.tokyo.jp/kosodatekyoiku/kodomo/jidokan/sekimachi/index.html",
    "color": "#5b8def",
    "lat": 35.7213,
    "lng": 139.5718
  },
  {
    "id": "nerima-higashi-oizumi",
    "name": "東大泉児童館",
    "region": "練馬区",
    "address": "東京都練馬区東大泉7丁目20番1号",
    "officialUrl": "https://higashiooizumi.net/",
    "sourcePage": "https://higashiooizumi.net/",
    "pdfUrl": "https://higashiooizumi.net/doc/letter.pdf?d=260629",
    "color": "#6aa84f",
    "lat": 35.7425,
    "lng": 139.5776
  },
  {
    "id": "nerima-shakujiidai",
    "name": "石神井台児童館",
    "region": "練馬区",
    "address": "東京都練馬区石神井台2丁目18番13号",
    "officialUrl": "https://www.city.nerima.tokyo.jp/kosodatekyoiku/kodomo/jidokan/shakujiidai/index.html",
    "sourcePage": "https://www.city.nerima.tokyo.jp/kosodatekyoiku/kodomo/jidokan/shakujiidai/index.html",
    "pdfUrl": "https://www.city.nerima.tokyo.jp/kosodatekyoiku/kodomo/jidokan/shakujiidai/index.html",
    "color": "#b5892f",
    "lat": 35.7358,
    "lng": 139.5898
  },
  {
    "id": "nerima-nishi-oizumi",
    "name": "西大泉児童館",
    "region": "練馬区",
    "address": "東京都練馬区西大泉3丁目21番16号",
    "officialUrl": "https://www.city.nerima.tokyo.jp/kosodatekyoiku/kodomo/jidokan/nishioizumi/index.html",
    "sourcePage": "https://www.city.nerima.tokyo.jp/kosodatekyoiku/kodomo/jidokan/nishioizumi/index.html",
    "pdfUrl": "https://www.city.nerima.tokyo.jp/kosodatekyoiku/kodomo/jidokan/nishioizumi/index.html",
    "color": "#8e5ad6",
    "lat": 35.7597,
    "lng": 139.5789
  },
  {
    "id": "nerima-miharadai",
    "name": "三原台児童館",
    "region": "練馬区",
    "address": "東京都練馬区三原台2丁目11番29号",
    "officialUrl": "https://www.city.nerima.tokyo.jp/kosodatekyoiku/kodomo/jidokan/miharadai/index.html",
    "sourcePage": "https://www.city.nerima.tokyo.jp/kosodatekyoiku/kodomo/jidokan/miharadai/index.html",
    "pdfUrl": "https://www.city.nerima.tokyo.jp/kosodatekyoiku/kodomo/jidokan/miharadai/index.html",
    "color": "#c95555",
    "lat": 35.7578,
    "lng": 139.6068
  },
  {
    "id": "nerima-hikarigaoka-nakayoshi",
    "name": "光が丘なかよし児童館",
    "region": "練馬区",
    "address": "東京都練馬区光が丘2丁目9番6号 光が丘区民センター内",
    "officialUrl": "https://www.city.nerima.tokyo.jp/kosodatekyoiku/kodomo/jidokan/nakayoshi/index.html",
    "sourcePage": "https://www.city.nerima.tokyo.jp/kosodatekyoiku/kodomo/jidokan/nakayoshi/index.html",
    "pdfUrl": "https://www.city.nerima.tokyo.jp/kosodatekyoiku/kodomo/jidokan/nakayoshi/index.html",
    "color": "#4f86c6",
    "lat": 35.7591,
    "lng": 139.6304
  },
  {
    "id": "nerima-koseibunka",
    "name": "厚生文化会館児童室",
    "region": "練馬区",
    "address": "東京都練馬区練馬4丁目2番3号",
    "officialUrl": "https://www.city.nerima.tokyo.jp/shisetsu/hokenfuku/fukushi/koseibunka/jido/index.html",
    "sourcePage": "https://www.city.nerima.tokyo.jp/shisetsu/hokenfuku/fukushi/koseibunka/jido/index.html",
    "pdfUrl": "https://www.city.nerima.tokyo.jp/shisetsu/hokenfuku/fukushi/koseibunka/jido/index.html",
    "color": "#e8804f",
    "lat": 35.7401,
    "lng": 139.6502
  },
  {
    "id": "nerima-piyopiyo-nerima",
    "name": "練馬ぴよぴよ",
    "region": "練馬区",
    "address": "東京都練馬区豊玉北5丁目18番12号 地域子ども家庭支援センター練馬分室1階",
    "officialUrl": "https://www.city.nerima.tokyo.jp/shisetsu/kodomo/piyopiyo/nerima.html",
    "sourcePage": "https://www.city.nerima.tokyo.jp/shisetsu/kodomo/piyopiyo/piyopiyodayori.html",
    "pdfUrl": "https://www.city.nerima.tokyo.jp/shisetsu/kodomo/piyopiyo/piyopiyodayori.files/01_nerima0807.pdf",
    "color": "#5cb85c",
    "lat": 35.7372,
    "lng": 139.6544
  },
  {
    "id": "nerima-piyopiyo-hikarigaoka",
    "name": "光が丘ぴよぴよ",
    "region": "練馬区",
    "address": "東京都練馬区光が丘5丁目2番5-105号",
    "officialUrl": "https://www.city.nerima.tokyo.jp/shisetsu/kodomo/piyopiyo/hikarigaoka.html",
    "sourcePage": "https://www.city.nerima.tokyo.jp/shisetsu/kodomo/piyopiyo/piyopiyodayori.html",
    "pdfUrl": "https://www.city.nerima.tokyo.jp/shisetsu/kodomo/piyopiyo/piyopiyodayori.files/02_hikari0807.pdf",
    "color": "#a06cd5",
    "lat": 35.7604,
    "lng": 139.6266
  },
  {
    "id": "nerima-piyopiyo-nukui",
    "name": "貫井ぴよぴよ",
    "region": "練馬区",
    "address": "東京都練馬区貫井3丁目25番15号",
    "officialUrl": "https://www.city.nerima.tokyo.jp/shisetsu/kodomo/piyopiyo/nukui.html",
    "sourcePage": "https://www.city.nerima.tokyo.jp/shisetsu/kodomo/piyopiyo/piyopiyodayori.html",
    "pdfUrl": "https://www.city.nerima.tokyo.jp/shisetsu/kodomo/piyopiyo/piyopiyodayori.files/03_nukui0807.pdf",
    "color": "#d6477f",
    "lat": 35.7374,
    "lng": 139.6271
  },
  {
    "id": "nerima-piyopiyo-oizumi",
    "name": "大泉ぴよぴよ",
    "region": "練馬区",
    "address": "東京都練馬区東大泉5丁目35番1号",
    "officialUrl": "https://www.city.nerima.tokyo.jp/shisetsu/kodomo/piyopiyo/oizumi_piyo.html",
    "sourcePage": "https://www.city.nerima.tokyo.jp/shisetsu/kodomo/piyopiyo/piyopiyodayori.html",
    "pdfUrl": "https://www.city.nerima.tokyo.jp/shisetsu/kodomo/piyopiyo/piyopiyodayori.files/04_ooizumio0807.pdf",
    "color": "#2bb3a3",
    "lat": 35.7474,
    "lng": 139.5899
  },
  {
    "id": "nerima-piyopiyo-seki",
    "name": "関ぴよぴよ",
    "region": "練馬区",
    "address": "東京都練馬区石神井台4丁目5番1号",
    "officialUrl": "https://www.city.nerima.tokyo.jp/shisetsu/kodomo/piyopiyo/seki.html",
    "sourcePage": "https://www.city.nerima.tokyo.jp/shisetsu/kodomo/piyopiyo/piyopiyodayori.html",
    "pdfUrl": "https://www.city.nerima.tokyo.jp/shisetsu/kodomo/piyopiyo/piyopiyodayori.files/05_seki0807.pdf",
    "color": "#e0a32e",
    "lat": 35.7311,
    "lng": 139.5879
  },
  {
    "id": "nerima-piyopiyo-nishi-oizumi",
    "name": "西大泉ぴよぴよ",
    "region": "練馬区",
    "address": "東京都練馬区西大泉4丁目9番1号",
    "officialUrl": "https://www.city.nerima.tokyo.jp/shisetsu/kodomo/piyopiyo/oizumi.html",
    "sourcePage": "https://www.city.nerima.tokyo.jp/shisetsu/kodomo/piyopiyo/piyopiyodayori.html",
    "pdfUrl": "https://www.city.nerima.tokyo.jp/shisetsu/kodomo/piyopiyo/piyopiyodayori.files/06_nisioo0807.pdf",
    "color": "#7e6cd6",
    "lat": 35.7615,
    "lng": 139.5773
  },
  {
    "id": "nerima-piyopiyo-tagara",
    "name": "田柄地区区民館ぴよぴよ",
    "region": "練馬区",
    "address": "東京都練馬区田柄3丁目28番13号 田柄地区区民館内",
    "officialUrl": "https://www.city.nerima.tokyo.jp/shisetsu/kodomo/piyopiyo/s120160420155936910.html",
    "sourcePage": "https://www.city.nerima.tokyo.jp/shisetsu/kodomo/piyopiyo/piyopiyodayori.html",
    "pdfUrl": "https://www.city.nerima.tokyo.jp/shisetsu/kodomo/piyopiyo/piyopiyodayori.files/09_tagara0807.pdf",
    "color": "#d2691e",
    "lat": 35.7623,
    "lng": 139.6373
  },
  {
    "id": "nerima-piyopiyo-kasugacho-minami",
    "name": "春日町南地区区民館ぴよぴよ",
    "region": "練馬区",
    "address": "東京都練馬区春日町5丁目20番25号 春日町南地区区民館内",
    "officialUrl": "https://www.city.nerima.tokyo.jp/shisetsu/kodomo/piyopiyo/s120160420164435740.html",
    "sourcePage": "https://www.city.nerima.tokyo.jp/shisetsu/kodomo/piyopiyo/piyopiyodayori.html",
    "pdfUrl": "https://www.city.nerima.tokyo.jp/shisetsu/kodomo/piyopiyo/piyopiyodayori.files/10_kasuga0807.pdf",
    "color": "#3b9e8f",
    "lat": 35.7477,
    "lng": 139.6388
  },
  {
    "id": "nerima-piyopiyo-tateno",
    "name": "立野地区区民館ぴよぴよ",
    "region": "練馬区",
    "address": "東京都練馬区立野町15番42号 立野地区区民館内",
    "officialUrl": "https://www.city.nerima.tokyo.jp/shisetsu/kodomo/piyopiyo/tatenopiyo.html",
    "sourcePage": "https://www.city.nerima.tokyo.jp/shisetsu/kodomo/piyopiyo/piyopiyodayori.html",
    "pdfUrl": "https://www.city.nerima.tokyo.jp/shisetsu/kodomo/piyopiyo/piyopiyodayori.files/11_tateno0807.pdf",
    "color": "#c0567a",
    "lat": 35.7187,
    "lng": 139.5827
  }
]
