[
  {
    "id": "setagaya-puresupo-ikejiri",
    "name": "プレスポ池尻児童館",
    "region": "世田谷区",
    "address": "〒154-0001 東京都世田谷区池尻2-3-11",
    "officialUrl": "https://www.city.setagaya.lg.jp/03061/8959.html",
    "sourcePage": "https://www.city.setagaya.lg.jp/03061/8959.html",
    "pdfUrl": "https://www.city.setagaya.lg.jp/documents/8959/osirase78.pdf",
    "color": "#4f86c6",
    "lat": 35.6475,
    "lng": 139.6818
  },
  {
    "id": "setagaya-wakabayashi",
    "name": "若林児童館",
    "region": "世田谷区",
    "address": "東京都世田谷区若林5丁目18番13号",
    "officialUrl": "https://www.city.setagaya.lg.jp/03062/8960.html",
    "sourcePage": "https://www.city.setagaya.lg.jp/03062/8960.html",
    "pdfUrl": "https://www.city.setagaya.lg.jp/documents/8960/78gatsuoshirase.pdf",
    "color": "#e8804f",
    "lat": 35.6489,
    "lng": 139.6574
  },
  {
    "id": "setagaya-tsurumaki",
    "name": "弦巻児童館",
    "region": "世田谷区",
    "address": "東京都世田谷区弦巻1丁目26番地11号 2F",
    "officialUrl": "https://www.city.setagaya.lg.jp/03063/8964.html",
    "sourcePage": "https://www.city.setagaya.lg.jp/03063/8964.html",
    "pdfUrl": "https://www.city.setagaya.lg.jp/documents/8964/78gatunooshirase.pdf",
    "color": "#5cb85c",
    "lat": 35.6381,
    "lng": 139.6518
  },
  {
    "id": "setagaya-nozawa",
    "name": "野沢児童館",
    "region": "世田谷区",
    "address": "東京都世田谷区野沢1丁目8番14号",
    "officialUrl": "https://www.city.setagaya.lg.jp/03064/8961.html",
    "sourcePage": "https://www.city.setagaya.lg.jp/03064/8961.html",
    "pdfUrl": "https://www.city.setagaya.lg.jp/documents/8961/7gatuosirase.pdf",
    "color": "#a06cd5",
    "lat": 35.6361,
    "lng": 139.6712
  },
  {
    "id": "setagaya-kamimachi",
    "name": "上町児童館",
    "region": "世田谷区",
    "address": "〒154-0017 東京都世田谷区世田谷2丁目30番16号",
    "officialUrl": "https://www.city.setagaya.lg.jp/03065/8962.html",
    "sourcePage": "https://www.city.setagaya.lg.jp/03065/8962.html",
    "pdfUrl": "https://www.city.setagaya.lg.jp/documents/8962/7gatu8gatunooshirase.pdf",
    "color": "#d6477f",
    "lat": 35.6424,
    "lng": 139.6433
  },
  {
    "id": "setagaya-sakuragaoka",
    "name": "桜丘児童館",
    "region": "世田谷区",
    "address": "〒156-0054 東京都世田谷区桜丘5丁目14番地1号 桜丘区民センター1階",
    "officialUrl": "https://www.city.setagaya.lg.jp/03066/8963.html",
    "sourcePage": "https://www.city.setagaya.lg.jp/03066/8963.html",
    "pdfUrl": "https://www.city.setagaya.lg.jp/documents/8963/7gatsuto8gatsunooshirase.pdf",
    "color": "#2bb3a3",
    "lat": 35.6457,
    "lng": 139.6203
  },
  {
    "id": "setagaya-puresupo-daita",
    "name": "プレスポ代田児童館",
    "region": "世田谷区",
    "address": "東京都世田谷区代田6丁目34番13号",
    "officialUrl": "https://www.city.setagaya.lg.jp/03067/8967.html",
    "sourcePage": "https://www.city.setagaya.lg.jp/03067/8967.html",
    "pdfUrl": "https://www.city.setagaya.lg.jp/documents/8967/7gatunoosirase.pdf",
    "color": "#e0a32e",
    "lat": 35.6644,
    "lng": 139.6631
  },
  {
    "id": "setagaya-matsuzawa",
    "name": "松沢児童館",
    "region": "世田谷区",
    "address": "〒156-0044 東京都世田谷区赤堤4丁目37番地14号",
    "officialUrl": "https://www.city.setagaya.lg.jp/03068/8966.html",
    "sourcePage": "https://www.city.setagaya.lg.jp/03068/8966.html",
    "pdfUrl": "https://www.city.setagaya.lg.jp/documents/8966/matsuzawa20260708.pdf",
    "color": "#7e6cd6",
    "lat": 35.6629,
    "lng": 139.6406
  },
  {
    "id": "setagaya-daita-minami",
    "name": "代田南児童館",
    "region": "世田谷区",
    "address": "東京都世田谷区代田1丁目13番14号",
    "officialUrl": "https://www.city.setagaya.lg.jp/03069/8965.html",
    "sourcePage": "https://www.city.setagaya.lg.jp/03069/8965.html",
    "pdfUrl": "https://www.city.setagaya.lg.jp/documents/8965/7gatunooshirase.pdf",
    "color": "#d2691e",
    "lat": 35.6527,
    "lng": 139.6631
  },
  {
    "id": "setagaya-todoroki",
    "name": "等々力児童館",
    "region": "世田谷区",
    "address": "東京都世田谷区等々力3丁目25番地16号",
    "officialUrl": "https://www.city.setagaya.lg.jp/03070/8975.html",
    "sourcePage": "https://www.city.setagaya.lg.jp/03070/8975.html",
    "pdfUrl": "https://www.city.setagaya.lg.jp/documents/8975/7gatsynooshirase.pdf",
    "color": "#3b9e8f",
    "lat": 35.6108,
    "lng": 139.6493
  },
  {
    "id": "setagaya-okusawa",
    "name": "奥沢子育て児童ひろば",
    "region": "世田谷区",
    "address": "東京都世田谷区奥沢4丁目8番14号",
    "officialUrl": "https://www.city.setagaya.lg.jp/03070/8974.html",
    "sourcePage": "https://www.city.setagaya.lg.jp/03070/8974.html",
    "pdfUrl": "https://www.city.setagaya.lg.jp/03070/8974.html",
    "color": "#c0567a",
    "lat": 35.6016,
    "lng": 139.6697
  },
  {
    "id": "setagaya-puresupo-tamagawadai",
    "name": "プレスポ玉川台児童館",
    "region": "世田谷区",
    "address": "東京都世田谷区玉川台1丁目6番15号",
    "officialUrl": "https://www.city.setagaya.lg.jp/03071/8973.html",
    "sourcePage": "https://www.city.setagaya.lg.jp/03071/8973.html",
    "pdfUrl": "https://www.city.setagaya.lg.jp/documents/8973/78gatuoshirase.pdf",
    "color": "#5b8def",
    "lat": 35.6232,
    "lng": 139.634
  },
  {
    "id": "setagaya-mori",
    "name": "森の児童館",
    "region": "世田谷区",
    "address": "東京都世田谷区上野毛4丁目29番18号",
    "officialUrl": "https://www.city.setagaya.lg.jp/03072/8969.html",
    "sourcePage": "https://www.city.setagaya.lg.jp/03072/8969.html",
    "pdfUrl": "https://www.city.setagaya.lg.jp/documents/8969/7gatunomorinodayori.pdf",
    "color": "#6aa84f",
    "lat": 35.6178,
    "lng": 139.6385
  },
  {
    "id": "setagaya-fukasawa",
    "name": "深沢児童館",
    "region": "世田谷区",
    "address": "〒158-0081 東京都世田谷区深沢四丁目33番11号 深沢区民センター2階",
    "officialUrl": "https://www.city.setagaya.lg.jp/03073/8970.html",
    "sourcePage": "https://www.city.setagaya.lg.jp/03073/8970.html",
    "pdfUrl": "https://www.city.setagaya.lg.jp/03073/8970.html",
    "color": "#b5892f",
    "lat": 35.6203,
    "lng": 139.657
  },
  {
    "id": "setagaya-kamiyoga",
    "name": "上用賀児童館",
    "region": "世田谷区",
    "address": "〒158-0098 東京都世田谷区上用賀四丁目14番3号101",
    "officialUrl": "https://www.city.setagaya.lg.jp/03074/8971.html",
    "sourcePage": "https://www.city.setagaya.lg.jp/03074/8971.html",
    "pdfUrl": "https://www.city.setagaya.lg.jp/03074/8971.html",
    "color": "#8e5ad6",
    "lat": 35.6364,
    "lng": 139.6292
  },
  {
    "id": "setagaya-shinmachi",
    "name": "新町児童館",
    "region": "世田谷区",
    "address": "〒154-0014 東京都世田谷区新町2丁目23番4号1階",
    "officialUrl": "https://www.city.setagaya.lg.jp/03075/8972.html",
    "sourcePage": "https://www.city.setagaya.lg.jp/03075/8972.html",
    "pdfUrl": "https://www.city.setagaya.lg.jp/documents/8972/78gatunoosirase.pdf",
    "color": "#c95555",
    "lat": 35.6298,
    "lng": 139.6489
  },
  {
    "id": "setagaya-funabashi",
    "name": "船橋児童館",
    "region": "世田谷区",
    "address": "東京都世田谷区船橋5丁目17番28号",
    "officialUrl": "https://www.city.setagaya.lg.jp/03076/8979.html",
    "sourcePage": "https://www.city.setagaya.lg.jp/03076/8979.html",
    "pdfUrl": "https://www.city.setagaya.lg.jp/documents/8979/7-8gatunoosirase.pdf",
    "color": "#4f86c6",
    "lat": 35.6553,
    "lng": 139.6275
  },
  {
    "id": "setagaya-puresupo-kitami",
    "name": "プレスポ喜多見児童館",
    "region": "世田谷区",
    "address": "東京都世田谷区喜多見2丁目10番地40号",
    "officialUrl": "https://www.city.setagaya.lg.jp/03077/8976.html",
    "sourcePage": "https://www.city.setagaya.lg.jp/03077/8976.html",
    "pdfUrl": "https://www.city.setagaya.lg.jp/03077/8976.html",
    "color": "#e8804f",
    "lat": 35.6215,
    "lng": 139.5919
  },
  {
    "id": "setagaya-seijo-sakura",
    "name": "成城さくら児童館",
    "region": "世田谷区",
    "address": "東京都世田谷区成城3丁目18番23号",
    "officialUrl": "https://www.city.setagaya.lg.jp/03078/18696.html",
    "sourcePage": "https://www.city.setagaya.lg.jp/03078/18696.html",
    "pdfUrl": "https://www.city.setagaya.lg.jp/documents/18696/7gatsu.pdf",
    "color": "#5cb85c",
    "lat": 35.6357,
    "lng": 139.5964
  },
  {
    "id": "setagaya-yamano",
    "name": "山野児童館",
    "region": "世田谷区",
    "address": "東京都世田谷区砧4丁目1番7号",
    "officialUrl": "https://www.city.setagaya.lg.jp/03079/15755.html",
    "sourcePage": "https://www.city.setagaya.lg.jp/03079/15755.html",
    "pdfUrl": "https://www.city.setagaya.lg.jp/03079/15755.html",
    "color": "#a06cd5",
    "lat": 35.6411,
    "lng": 139.6143
  },
  {
    "id": "setagaya-soshigaya",
    "name": "祖師谷児童館",
    "region": "世田谷区",
    "address": "東京都世田谷区祖師谷4丁目28番6号101",
    "officialUrl": "https://www.city.setagaya.lg.jp/03080/8981.html",
    "sourcePage": "https://www.city.setagaya.lg.jp/03080/8981.html",
    "pdfUrl": "https://www.city.setagaya.lg.jp/documents/8981/7gatunooshirase.pdf",
    "color": "#d6477f",
    "lat": 35.6482,
    "lng": 139.6053
  },
  {
    "id": "setagaya-kamata",
    "name": "鎌田児童館",
    "region": "世田谷区",
    "address": "東京都世田谷区鎌田3丁目35番1号 鎌田区民センター2階",
    "officialUrl": "https://www.city.setagaya.lg.jp/03081/8980.html",
    "sourcePage": "https://www.city.setagaya.lg.jp/03081/8980.html",
    "pdfUrl": "https://www.city.setagaya.lg.jp/03081/8980.html",
    "color": "#2bb3a3",
    "lat": 35.6208,
    "lng": 139.6154
  },
  {
    "id": "setagaya-karasuyama",
    "name": "烏山児童館",
    "region": "世田谷区",
    "address": "〒157-0062 東京都世田谷区南烏山4丁目26番3号",
    "officialUrl": "https://www.city.setagaya.lg.jp/03082/8983.html",
    "sourcePage": "https://www.city.setagaya.lg.jp/03082/8983.html",
    "pdfUrl": "https://www.city.setagaya.lg.jp/documents/8983/78gatunoosirase.pdf",
    "color": "#e0a32e",
    "lat": 35.6704,
    "lng": 139.6032
  },
  {
    "id": "setagaya-kamikitazawa",
    "name": "上北沢児童館",
    "region": "世田谷区",
    "address": "〒156-0057 東京都世田谷区上北沢3丁目8番9号",
    "officialUrl": "https://www.city.setagaya.lg.jp/03083/8984.html",
    "sourcePage": "https://www.city.setagaya.lg.jp/03083/8984.html",
    "pdfUrl": "https://www.city.setagaya.lg.jp/documents/8984/7gatsunoosirase.pdf",
    "color": "#7e6cd6",
    "lat": 35.6671,
    "lng": 139.6247
  },
  {
    "id": "setagaya-kamisoshigaya-paru",
    "name": "上祖師谷ぱる児童館",
    "region": "世田谷区",
    "address": "東京都世田谷区上祖師谷4丁目5番地6号",
    "officialUrl": "https://www.city.setagaya.lg.jp/03084/8982.html",
    "sourcePage": "https://www.city.setagaya.lg.jp/03084/8982.html",
    "pdfUrl": "https://www.city.setagaya.lg.jp/documents/8982/7gatunoosirase_1.pdf",
    "color": "#d2691e",
    "lat": 35.6546,
    "lng": 139.5959
  },
  {
    "id": "setagaya-puresupo-kasuya",
    "name": "プレスポ粕谷児童館",
    "region": "世田谷区",
    "address": "〒157-0063 東京都世田谷区粕谷4丁目13番6号（粕谷区民センター併設）",
    "officialUrl": "https://www.city.setagaya.lg.jp/03085/8985.html",
    "sourcePage": "https://www.city.setagaya.lg.jp/03085/8985.html",
    "pdfUrl": "https://www.city.setagaya.lg.jp/03085/8985.html",
    "color": "#3b9e8f",
    "lat": 35.6642,
    "lng": 139.6048
  }
]
