[
  {
    "id": "shinjuku-honshiocho",
    "name": "本塩町児童館",
    "region": "新宿区",
    "address": "〒160-0004 東京都新宿区四谷本塩町4番9号",
    "lat": 35.689043,
    "lng": 139.7301896,
    "officialUrl": "https://www.city.shinjuku.lg.jp/kodomo/file03_03_00007.html",
    "sourcePage": "https://www.city.shinjuku.lg.jp/kodomo/file03_03_00007.html",
    "pdfUrl": "https://www.city.shinjuku.lg.jp/content/000446874.pdf",
    "color": "#4f86c6"
  },
  {
    "id": "shinjuku-higashigokencho",
    "name": "東五軒町児童館",
    "region": "新宿区",
    "address": "〒162-0813 東京都新宿区東五軒町5-24",
    "lat": 35.7065865,
    "lng": 139.7394767,
    "officialUrl": "https://www.city.shinjuku.lg.jp/kodomo/file03_03_00026.html",
    "sourcePage": "https://www.city.shinjuku.lg.jp/kodomo/file03_03_00026.html",
    "pdfUrl": "https://www.city.shinjuku.lg.jp/content/000419601.pdf",
    "color": "#e8804f"
  },
  {
    "id": "shinjuku-kitayamabushi",
    "name": "北山伏児童館",
    "region": "新宿区",
    "address": "〒162-0846 東京都新宿区北山伏町2-17",
    "lat": 35.7000522,
    "lng": 139.7303921,
    "officialUrl": "https://www.city.shinjuku.lg.jp/kodomo/file03_03_00009.html",
    "sourcePage": "https://www.city.shinjuku.lg.jp/kodomo/file03_03_00009.html",
    "pdfUrl": "https://www.city.shinjuku.lg.jp/kodomo/file03_03_00009.html",
    "color": "#5cb85c"
  },
  {
    "id": "shinjuku-nakamachi",
    "name": "中町児童館",
    "region": "新宿区",
    "address": "〒162-0821 東京都新宿区中町25",
    "lat": 35.6992877,
    "lng": 139.7360435,
    "officialUrl": "https://www.city.shinjuku.lg.jp/kodomo/file03_03_00010.html",
    "sourcePage": "https://www.city.shinjuku.lg.jp/kodomo/file03_03_00010.html",
    "pdfUrl": "https://www.city.shinjuku.lg.jp/kodomo/file03_03_00010.html",
    "color": "#a06cd5"
  },
  {
    "id": "shinjuku-yakuoji",
    "name": "薬王寺児童館",
    "region": "新宿区",
    "address": "〒162-0842 東京都新宿区市谷薬王寺町20番40号",
    "lat": 35.6969145,
    "lng": 139.7259531,
    "officialUrl": "https://www.city.shinjuku.lg.jp/kodomo/file03_03_00011.html",
    "sourcePage": "https://www.city.shinjuku.lg.jp/kodomo/file03_03_00011.html",
    "pdfUrl": "https://www.city.shinjuku.lg.jp/kodomo/file03_03_00011.html",
    "color": "#d6477f"
  },
  {
    "id": "shinjuku-wasedaminamicho",
    "name": "早稲田南町児童館",
    "region": "新宿区",
    "address": "〒162-0043 東京都新宿区早稲田南町50",
    "lat": 35.7043627,
    "lng": 139.7237053,
    "officialUrl": "https://www.city.shinjuku.lg.jp/kodomo/file03_03_00023.html",
    "sourcePage": "https://www.city.shinjuku.lg.jp/kodomo/file03_03_00023.html",
    "pdfUrl": "https://www.city.shinjuku.lg.jp/content/000361203.pdf",
    "color": "#2bb3a3"
  },
  {
    "id": "shinjuku-tomikucho",
    "name": "富久町児童館",
    "region": "新宿区",
    "address": "〒162-0842 東京都新宿区富久町22-21",
    "lat": 35.693561,
    "lng": 139.715184,
    "officialUrl": "https://www.city.shinjuku.lg.jp/kodomo/file03_03_00012.html",
    "sourcePage": "https://www.city.shinjuku.lg.jp/kodomo/file03_03_00012.html",
    "pdfUrl": "https://www.city.shinjuku.lg.jp/kodomo/file03_03_00012.html",
    "color": "#e0a32e"
  },
  {
    "id": "shinjuku-hyakuninmachi",
    "name": "百人町児童館",
    "region": "新宿区",
    "address": "〒169-0073 東京都新宿区百人町2-18-21",
    "lat": 35.703008,
    "lng": 139.6992999,
    "officialUrl": "https://www.city.shinjuku.lg.jp/kodomo/file03_03_00015.html",
    "sourcePage": "https://www.city.shinjuku.lg.jp/kodomo/file03_03_00015.html",
    "pdfUrl": "https://www.city.shinjuku.lg.jp/kodomo/file03_03_00015.html",
    "color": "#7e6cd6"
  },
  {
    "id": "shinjuku-takadanobaba1",
    "name": "高田馬場第一児童館",
    "region": "新宿区",
    "address": "〒169-0075 東京都新宿区高田馬場3-18-21",
    "lat": 35.713485,
    "lng": 139.6976075,
    "officialUrl": "https://www.city.shinjuku.lg.jp/kodomo/file03_03_00016.html",
    "sourcePage": "https://www.city.shinjuku.lg.jp/kodomo/file03_03_00016.html",
    "pdfUrl": "https://www.city.shinjuku.lg.jp/content/000458991.pdf",
    "color": "#d2691e"
  },
  {
    "id": "shinjuku-takadanobaba2",
    "name": "高田馬場第二児童館",
    "region": "新宿区",
    "address": "〒169-0075 東京都新宿区高田馬場1-4-17",
    "lat": 35.7109696,
    "lng": 139.7069778,
    "officialUrl": "https://www.city.shinjuku.lg.jp/kodomo/file03_03_00017.html",
    "sourcePage": "https://www.city.shinjuku.lg.jp/kodomo/file03_03_00017.html",
    "pdfUrl": "https://www.city.shinjuku.lg.jp/kodomo/file03_03_00017.html",
    "color": "#3b9e8f"
  },
  {
    "id": "shinjuku-kamiochiai",
    "name": "上落合児童館",
    "region": "新宿区",
    "address": "〒161-0034 東京都新宿区上落合2-28-8",
    "lat": 35.7135024,
    "lng": 139.6885134,
    "officialUrl": "https://www.city.shinjuku.lg.jp/kodomo/file03_03_00018.html",
    "sourcePage": "https://www.city.shinjuku.lg.jp/kodomo/file03_03_00018.html",
    "pdfUrl": "https://www.city.shinjuku.lg.jp/kodomo/file03_03_00018.html",
    "color": "#c0567a"
  },
  {
    "id": "shinjuku-nishiochiai",
    "name": "西落合児童館",
    "region": "新宿区",
    "address": "〒161-0031 東京都新宿区西落合1-31-24",
    "lat": 35.7211538,
    "lng": 139.6815196,
    "officialUrl": "https://www.city.shinjuku.lg.jp/kodomo/file03_03_00019.html",
    "sourcePage": "https://www.city.shinjuku.lg.jp/kodomo/file03_03_00019.html",
    "pdfUrl": "https://www.city.shinjuku.lg.jp/kodomo/file03_03_00019.html",
    "color": "#5b8def"
  },
  {
    "id": "shinjuku-nakai",
    "name": "中井児童館",
    "region": "新宿区",
    "address": "〒161-0035 東京都新宿区中井1-8-12",
    "lat": 35.7150367,
    "lng": 139.6845679,
    "officialUrl": "https://www.city.shinjuku.lg.jp/kodomo/file03_03_00031.html",
    "sourcePage": "https://www.city.shinjuku.lg.jp/kodomo/file03_03_00031.html",
    "pdfUrl": "https://www.city.shinjuku.lg.jp/kodomo/file03_03_00031.html",
    "color": "#6aa84f"
  },
  {
    "id": "shinjuku-kitashinjuku1",
    "name": "北新宿第一児童館",
    "region": "新宿区",
    "address": "〒169-0074 東京都新宿区北新宿2-3-7",
    "lat": 35.6985362,
    "lng": 139.6898881,
    "officialUrl": "https://www.city.shinjuku.lg.jp/kodomo/file03_03_00022.html",
    "sourcePage": "https://www.city.shinjuku.lg.jp/kodomo/file03_03_00022.html",
    "pdfUrl": "https://www.city.shinjuku.lg.jp/content/000458983.pdf",
    "color": "#b5892f"
  },
  {
    "id": "shinjuku-nishishinjuku",
    "name": "西新宿児童館",
    "region": "新宿区",
    "address": "〒160-0023 東京都新宿区西新宿4-35-28",
    "lat": 35.6875376,
    "lng": 139.6878764,
    "officialUrl": "https://www.city.shinjuku.lg.jp/kodomo/file03_03_00024.html",
    "sourcePage": "https://www.city.shinjuku.lg.jp/kodomo/file03_03_00024.html",
    "pdfUrl": "https://www.city.shinjuku.lg.jp/kodomo/file03_03_00024.html",
    "color": "#8e5ad6"
  },
  {
    "id": "shinjuku-nakaochiai-fsc",
    "name": "中落合子ども家庭支援センター＜児童コーナー＞",
    "region": "新宿区",
    "address": "〒161-0032 東京都新宿区中落合2-7-24",
    "lat": 35.7194759,
    "lng": 139.6925005,
    "officialUrl": "https://www.city.shinjuku.lg.jp/kodomo/file03_03_00004.html",
    "sourcePage": "https://www.city.shinjuku.lg.jp/kodomo/file03_03_00004.html",
    "pdfUrl": "https://www.city.shinjuku.lg.jp/content/000344052.pdf",
    "color": "#c95555"
  },
  {
    "id": "shinjuku-enokicho-fsc",
    "name": "榎町子ども家庭支援センター＜児童コーナー＞",
    "region": "新宿区",
    "address": "〒162-0806 東京都新宿区榎町36",
    "lat": 35.7051338,
    "lng": 139.7277917,
    "officialUrl": "https://www.city.shinjuku.lg.jp/kodomo/file03_03_00005.html",
    "sourcePage": "https://www.city.shinjuku.lg.jp/kodomo/file03_03_00005.html",
    "pdfUrl": "https://www.city.shinjuku.lg.jp/kodomo/file03_03_00005.html",
    "color": "#4f86c6"
  },
  {
    "id": "shinjuku-shinanomachi-fsc",
    "name": "信濃町子ども家庭支援センター＜児童コーナー＞",
    "region": "新宿区",
    "address": "〒160-0016 東京都新宿区信濃町20",
    "lat": 35.6800236,
    "lng": 139.7204947,
    "officialUrl": "https://www.city.shinjuku.lg.jp/kodomo/file03_03_00030.html",
    "sourcePage": "https://www.city.shinjuku.lg.jp/kodomo/file03_03_00030.html",
    "pdfUrl": "https://www.city.shinjuku.lg.jp/content/000431396.pdf",
    "color": "#e8804f"
  },
  {
    "id": "shinjuku-kitashinjuku-fsc",
    "name": "北新宿子ども家庭支援センター＜児童コーナー＞",
    "region": "新宿区",
    "address": "〒169-0074 東京都新宿区北新宿3-20-2",
    "lat": 35.7038073,
    "lng": 139.6915001,
    "officialUrl": "https://www.city.shinjuku.lg.jp/kodomo/file03_03_00044.html",
    "sourcePage": "https://www.city.shinjuku.lg.jp/kodomo/file03_03_00044.html",
    "pdfUrl": "https://www.city.shinjuku.lg.jp/kodomo/file03_03_00044.html",
    "color": "#5cb85c"
  },
  {
    "id": "shinjuku-kodomosogo",
    "name": "子ども総合センター＜児童コーナー＞",
    "region": "新宿区",
    "address": "〒160-0022 東京都新宿区新宿7-3-29",
    "lat": 35.6995926,
    "lng": 139.7112311,
    "officialUrl": "https://www.city.shinjuku.lg.jp/kodomo/kodomos01_001009.html",
    "sourcePage": "https://www.city.shinjuku.lg.jp/kodomo/kodomos01_001009.html",
    "pdfUrl": "https://www.city.shinjuku.lg.jp/kodomo/kodomos01_001009.html",
    "color": "#a06cd5"
  }
]
